{
  "type": "FeatureCollection",
  "name": "Serpentine Deposits",
  "crs": { "type": "name", "properties": { "name": "urn:ogc:def:crs:OGC:1.3:CRS84" } },
  "features": [
    {
      "type": "Feature",
      "properties": {
        "name": "New York City",
        "type": "serpentine",
        "description": "Serpentine deposits in the New York metropolitan area",
        "source": "USGS Mineral Resources Data"
      },
      "geometry": {
        "type": "Point",
        "coordinates": [-74.0060, 40.7128]
      }
    },
    {
      "type": "Feature",
      "properties": {
        "name": "Tokyo Area",
        "type": "serpentine",
        "description": "Serpentine deposits in the Tokyo region",
        "source": "USGS Mineral Resources Data"
      },
      "geometry": {
        "type": "Point",
        "coordinates": [139.6917, 35.6895]
      }
    },
    {
      "type": "Feature",
      "properties": {
        "name": "Los Angeles",
        "type": "serpentine",
        "description": "Serpentine deposits in Southern California",
        "source": "USGS Mineral Resources Data"
      },
      "geometry": {
        "type": "Point",
        "coordinates": [-118.2437, 34.0522]
      }
    },
    {
      "type": "Feature",
      "properties": {
        "name": "Singapore",
        "type": "serpentine",
        "description": "Serpentine deposits near Singapore",
        "source": "USGS Mineral Resources Data"
      },
      "geometry": {
        "type": "Point",
        "coordinates": [103.8198, 1.3521]
      }
    },
    {
      "type": "Feature",
      "properties": {
        "name": "Canberra",
        "type": "serpentine",
        "description": "Serpentine deposits in the Australian Capital Territory",
        "source": "USGS Mineral Resources Data"
      },
      "geometry": {
        "type": "Point",
        "coordinates": [149.1300, -35.2809]
      }
    }
  ]
}
